[
    {
        "name": "Damascus",
        "lat": 33.5130695,
        "lon": 36.3095814,
        "distance": 216.82791454894598
    },
    {
        "name": "Beirut",
        "lat": 33.8959203,
        "lon": 35.47843,
        "distance": 234.83148948910255
    },
    {
        "name": "Amman",
        "lat": 31.9515694,
        "lon": 35.9239625,
        "distance": 69.42292149117714
    },
    {
        "name": "Cairo",
        "lat": 30.0443879,
        "lon": 31.2357257,
        "distance": 426.33968338728715
    },
    {
        "name": "Baghdad",
        "lat": 33.3061701,
        "lon": 44.3872213,
        "distance": 875.9003180450427
    },
    {
        "name": "Tehran",
        "lat": 35.6892523,
        "lon": 51.3896004,
        "distance": 1555.0931600547863
    },
    {
        "name": "Riyadh",
        "lat": 24.638916,
        "lon": 46.7160104,
        "distance": 1378.3349025380287
    },
    {
        "name": "Tripoli",
        "lat": 32.896672,
        "lon": 13.1777923,
        "distance": 2069.772480274998
    },
    {
        "name": "Ankara",
        "lat": 39.9207886,
        "lon": 32.8540482,
        "distance": 927.9917316444437
    },
    {
        "name": "Khartoum",
        "lat": 15.5635972,
        "lon": 32.5349123,
        "distance": 1825.20754854364
    },
    {
        "name": "Gaza",
        "lat": 31.5128679,
        "lon": 34.4581358,
        "distance": 77.98638767534102
    },
    {
        "name": "Sanaa",
        "lat": 15.3538569,
        "lon": 44.2058841,
        "distance": 2042.8868638046545
    },
    {
        "name": "Manama",
        "lat": 26.2235041,
        "lon": 50.5822436,
        "distance": 1615.9855179493275
    },
    {
        "name": "Kuwait City",
        "lat": 29.3796532,
        "lon": 47.9734174,
        "distance": 1249.9291801753118
    },
    {
        "name": "Doha",
        "lat": 25.2856329,
        "lon": 51.5264162,
        "distance": 1747.7407767439504
    }
]